{
  "rInfo": [
    {
      "name": "맥도날드 위례신도시",
      "address": "서울 송파구 장지동 896",
      "contact": "070-7209-1519",
      "open_hours": "매일 24시간 연중무휴"
    },
    {
      "name": "맥도날드 굽은다리역DT",
      "address": "서울 강동구 천호동 31-10",
      "contact": "070-7209-0553",
      "open_hours": "매일 24시간 연중무휴"
    },
    {
      "name": "맥도날드 서울둔촌DT",
      "address": "서울 강동구 둔촌동 517-2",
      "contact": "070-7209-0555",
      "open_hours": "매일 24시간 연중무휴"
    },
    {
      "name": "맥도날드 강동구청",
      "address": "서울 강동구 성내동 539-2",
      "contact": "070-7017-0528",
      "open_hours": "매일 24시간 연중무휴"
    },
    {
      "name": "맥도날드 상계DT",
      "address": "서울 노원구 상계동 1022",
      "contact": "070-7209-0600",
      "open_hours": "매일 24시간 연중무휴"
    },
    {
      "name": "맥도날드 석촌역",
      "address": "서울 송파구 송파동 84",
      "contact": "070-7017-6515",
      "open_hours": "매일 24시간 연중무휴"
    },
    {
      "name": "맥도날드 중계",
      "address": "서울 노원구 중계동 359-14",
      "contact": "070-7017-0388",
      "open_hours": "매일 24시간 연중무휴"
    },
    {
      "name": "맥도날드 잠실역",
      "address": "서울 송파구 신천동 7-25",
      "contact": "070-7209-0613",
      "open_hours": "매일 24시간 연중무휴"
    },
    {
      "name": "맥도날드 중계역",
      "address": "서울 노원구 상계동 763-2",
      "contact": "070-7017-0455",
      "open_hours": "매일 24시간 연중무휴"
    },
    {
      "name": "맥도날드 신내",
      "address": "서울 중랑구 신내동 666",
      "contact": "070-7017-0468",
      "open_hours": "매일 24시간 연중무휴"
    },
    {
      "name": "맥도날드 신천",
      "address": "서울 송파구 잠실동 181-9",
      "contact": "070-7017-0582",
      "open_hours": "매일 24시간 연중무휴"
    },
    {
      "name": "맥도날드 송파잠실DT",
      "address": "서울 송파구 잠실동 305-15",
      "contact": "070-7209-0613",
      "open_hours": "매일 24시간 연중무휴"
    },
    {
      "name": "맥도날드 서울시흥DT",
      "address": "서울 금천구 시흥동 903-4",
      "contact": "070-7209-0520",
      "open_hours": "매일 24시간 연중무휴"
    },
    {
      "name": "맥도날드 구의역",
      "address": "서울 광진구 자양동 216-11",
      "contact": "070-7209-1564",
      "open_hours": "매일 24시간 연중무휴"
    },
    {
      "name": "맥도날드 양재SK DT",
      "address": "서울 서초구 양재동 81",
      "contact": "070-7017-1446",
      "open_hours": "매일 24시간 연중무휴"
    },
    {
      "name": "맥도날드 한티역",
      "address": "서울 강남구 대치동 938-22",
      "contact": "070-7017-1409",
      "open_hours": "매일 24시간 연중무휴"
    },
    {
      "name": "맥도날드 양재",
      "address": "서울 서초구 양재동 24",
      "contact": "070-7017-0326",
      "open_hours": "매일 24시간 연중무휴"
    },
    {
      "name": "맥도날드 노원",
      "address": "서울 노원구 하계동 284",
      "contact": "070-7017-0348",
      "open_hours": "매일 24시간 연중무휴"
    },
    {
      "name": "맥도날드 송정역",
      "address": "서울 강서구 공항동 45-38",
      "contact": "070-7017-0576",
      "open_hours": "매일 24시간 연중무휴"
    },
    {
      "name": "맥도날드 삼성역",
      "address": "서울 강남구 삼성동 158-15",
      "contact": "070-7017-6471",
      "open_hours": "매일 24시간 연중무휴"
    },
    {
      "name": "맥도날드 수유",
      "address": "서울 강북구 번동 418-17",
      "contact": "070-7017-0336",
      "open_hours": "매일 24시간 연중무휴"
    },
    {
      "name": "맥도날드 한국외대",
      "address": "서울 동대문구 이문동 305-2",
      "contact": "070-7209-1547",
      "open_hours": "매일 24시간 연중무휴"
    },
    {
      "name": "맥도날드 서초뱅뱅",
      "address": "서울 서초구 서초동 1338-20",
      "contact": "070-7017-1389",
      "open_hours": "매일 24시간 연중무휴"
    },
    {
      "name": "맥도날드 강남삼성DT",
      "address": "서울 강남구 삼성동 113-7",
      "contact": "070-7209-0677",
      "open_hours": "매일 24시간 연중무휴"
    },
    {
      "name": "맥도날드 신월DT",
      "address": "서울 양천구 신월동 199-3",
      "contact": "070-7017-6854",
      "open_hours": "매일 24시간 연중무휴"
    },
    {
      "name": "맥도날드 가산디지털",
      "address": "서울 금천구 가산동 50-3"
    },
    {
      "name": "맥도날드 굽은다리역DT",
      "address": "서울 강동구 천호동 31-10"
    },
    {
      "name": "맥도날드 방배",
      "address": "서울 서초구 방배동 909-9"
    },
    {
      "name": "맥도날드 강남구청",
      "address": "서울 강남구 논현동 242-29"
    },
    {
      "name": "맥도날드 구로디지털",
      "address": "서울 구로구 구로동 197-21"
    },
    {
      "name": "맥도날드 미아DT",
      "address": "서울 강북구 미아동 682-12"
    },
    {
      "name": "맥도날드 종암SK",
      "address": "서울 성북구 종암동 10-15"
    },
    {
      "name": "맥도날드 신림",
      "address": "서울 관악구 신림동 1641-22"
    },
    {
      "name": "맥도날드 한양대",
      "address": "서울 성동구 행당동 31-7"
    },
    {
      "name": "맥도날드 신사역",
      "address": "서울 강남구 신사동 514-15"
    },
    {
      "name": "맥도날드 안암",
      "address": "서울 성북구 안암동5가 102-33"
    },
    {
      "name": "맥도날드 등촌DT",
      "address": "서울 강서구 등촌동 630"
    },
    {
      "name": "맥도날드 숭실대",
      "address": "서울 동작구 상도동 505-5"
    },
    {
      "name": "맥도날드 보라매",
      "address": "서울 영등포구 신길동 505"
    },
    {
      "name": "맥도날드 연신내",
      "address": "서울 은평구 갈현동 456-28"
    },
    {
      "name": "맥도날드 동묘",
      "address": "서울 종로구 창신동 290"
    },
    {
      "name": "맥도날드 중앙대",
      "address": "서울 동작구 흑석동 221"
    },
    {
      "name": "맥도날드 구산",
      "address": "서울 은평구 구산동 1-14"
    },
    {
      "name": "맥도날드 대학로",
      "address": "서울 종로구 동숭동 1-34"
    },
    {
      "name": "맥도날드 양평SK DT",
      "address": "서울 영등포구 양평동3가 80-2"
    },
    {
      "name": "맥도날드 성균관대",
      "address": "서울 종로구 명륜2가 197-1"
    },
    {
      "name": "맥도날드 서울 상암 DMC",
      "address": "서울 마포구 상암동 1602"
    },
    {
      "name": "맥도날드 노량진",
      "address": "서울 동작구 노량진동 100-1"
    },
    {
      "name": "맥도날드 이태원",
      "address": "서울 용산구 이태원동 56-21"
    },
    {
      "name": "맥도날드 서울시청",
      "address": "서울 중구 을지로1가 32"
    },
    {
      "name": "맥도날드 홍제역",
      "address": "서울 서대문구 홍제동 253-11"
    },
    {
      "name": "맥도날드 망원",
      "address": "서울 마포구 망원동 377-19"
    },
    {
      "name": "맥도날드 홍익대",
      "address": "서울 마포구 동교동 162-4"
    },
    {
      "name": "맥도날드 연세대",
      "address": "서울 서대문구 창천동 33-12"
    },
    {
      "name": "롯데리아 왕십리역사",
      "address": "서울 성동구 행당동 168-151"
    },
    {
      "name": "롯데리아 수서역사",
      "address": "서울 강남구 수서동 207-1"
    },
    {
      "name": "롯데리아 남성역",
      "address": "서울 동작구 사당동 249-84"
    },
    {
      "name": "롯데리아 서대문역",
      "address": "서울 서대문구 충정로2가 8-2"
    },
    {
      "name": "롯데리아 서울대입구역",
      "address": "서울 관악구 봉천동 863-1"
    },
    {
      "name": "롯데리아 군자",
      "address": "서울 광진구 군자동 478-5"
    },
    {
      "name": "롯데리아 번동DT",
      "address": "서울 강북구 번동 410-94"
    },
    {
      "name": "롯데리아 역삼",
      "address": "서울 강남구 역삼동 824-19"
    },
    {
      "name": "롯데리아 천호역",
      "address": "서울 강동구 천호동 429-2"
    },
    {
      "name": "롯데리아 창동역",
      "address": "서울 도봉구 창동 74-8"
    },
    {
      "name": "롯데리아 동묘역",
      "address": "서울 종로구 창신동 326-6"
    },
    {
      "name": "롯데리아 강남우성사거리",
      "address": "서울 강남구 역삼동 832"
    },
    {
      "name": "롯데리아 선릉",
      "address": "서울 강남구 역삼동 707-5"
    },
    {
      "name": "롯데리아 상봉역",
      "address": "서울 중랑구 상봉동 115-14"
    },
    {
      "name": "롯데리아 이수역",
      "address": "서울 동작구 사당동 86-9"
    },
    {
      "name": "롯데리아 사당",
      "address": "서울 서초구 방배동 443-3"
    },
    {
      "name": "롯데리아 건대역",
      "address": "서울 광진구 화양동 4-20"
    },
    {
      "name": "롯데리아 숙대입구역",
      "address": "서울 용산구 갈월동 89-9"
    },
    {
      "name": "롯데리아 성신여대",
      "address": "서울 성북구 동선동4가 104"
    },
    {
      "name": "롯데리아 동대문역사문화공원역",
      "address": "서울 중구 을지로6가 18-130"
    },
    {
      "name": "롯데리아 신림역",
      "address": "서울 관악구 신림동 1640-9"
    },
    {
      "name": "롯데리아 청량리",
      "address": "서울 동대문구 청량리동 262"
    },
    {
      "name": "롯데리아 노량진",
      "address": "서울 동작구 노량진동 45-5"
    },
    {
      "name": "롯데리아 신촌로터리",
      "address": "서울 마포구 노고산동 57-13"
    },
    {
      "name": "롯데리아 신정네거리",
      "address": "서울 양천구 신정동 1190-3"
    },
    {
      "name": "롯데리아 서울역광장",
      "address": "서울 용산구 동자동 43-205"
    },
    {
      "name": "롯데리아 종각역",
      "address": "서울 종로구 종로2가 84-8"
    },
    {
      "name": "롯데리아 혜화",
      "address": "서울 종로구 혜화동 111-7"
    },
    {
      "name": "롯데리아 남부터미널",
      "address": "서울 서초구 서초동 1602-10"
    },
    {
      "name": "롯데리아 석관",
      "address": "서울 성북구 석관동 255-2"
    },
    {
      "name": "롯데리아 까치산역",
      "address": "서울 강서구 화곡동 343-60"
    },
    {
      "name": "롯데리아 노원역",
      "address": "서울 노원구 상계동 617"
    },
    {
      "name": "롯데리아 명일DT",
      "address": "서울 강동구 명일동 306-2"
    },
    {
      "name": "롯데리아 면목중앙",
      "address": "서울 중랑구 면목동 126-39"
    },
    {
      "name": "롯데리아 구로시장",
      "address": "서울 구로구 구로동 141-5"
    },
    {
      "name": "롯데리아 응암",
      "address": "서울 은평구 응암동 98-65"
    },
    {
      "name": "롯데리아 구로디지털역",
      "address": "서울 관악구 신림동 1643"
    },
    {
      "name": "롯데리아 불광",
      "address": "서울 은평구 대조동 6-5"
    },
    {
      "name": "롯데리아 길동",
      "address": "서울 강동구 성내동 244-3"
    },
    {
      "name": "롯데리아 마들역",
      "address": "서울 노원구 상계동 649-6"
    }
  ],

  "cInfo": [
    {
      "name": "할리스 종로3가",
      "address": "서울 종로구 종로3가 8"
    },
    {
      "name": "할리스 약수역",
      "address": "서울 중구 신당동 368-66"
    },
    {
      "name": "할리스 홍대입구역",
      "address": "서울 마포구 서교동 344-13"
    },
    {
      "name": "할리스 신림고시촌",
      "address": "서울 관악구 신림동 1513-2"
    },
    {
      "name": "할리스 동대문역사문화공원",
      "address": "서울 중구 을지로6가 18-134"
    },
    {
      "name": "할리스 신림사거리",
      "address": "서울 관악구 신림동 1433-51"
    },
    {
      "name": "할리스 노량진역",
      "address": "서울 동작구 노량진동 67-9"
    },
    {
      "name": "할리스 굽은다리역",
      "address": "서울 강동구 천호동 31-2"
    },
    {
      "name": "할리스 서울대사거리",
      "address": "서울 관악구 봉천동 857-4"
    },
    {
      "name": "할리스 건대입구",
      "address": "서울 광진구 화양동 7-13"
    },
    {
      "name": "할리스 당산역",
      "address": "서울 영등포구 당산동5가 28"
    },
    {
      "name": "할리스 종로본점",
      "address": "서울 종로구 종로2가 75-2"
    },
    {
      "name": "할리스 연신내",
      "address": "서울 은평구 대조동 199-28"
    },
    {
      "name": "할리스 한남순천향",
      "address": "서울 용산구 한남동 638-5"
    },
    {
      "name": "할리스 노원문화의거리",
      "address": "서울 노원구 상계동 332-1"
    },
    {
      "name": "할리스 도곡",
      "address": "서울 강남구 도곡동 422-2"
    },
    {
      "name": "할리스 강남역",
      "address": "서울 강남구 역삼동 820-11"
    },
    {
      "name": "할리스 세종로",
      "address": "서울 종로구 세종로 200"
    },
    {
      "name": "할리스 신촌",
      "address": "서울 서대문구 창천동 31-12"
    },
    {
      "name": "할리스 이태원",
      "address": "서울 용산구 이태원동 123-13"
    },
    {
      "name": "할리스 신논현역",
      "address": "서울 강남구 논현동 200"
    },
    {
      "name": "할리스 신림",
      "address": "서울 관악구 신림동 1432-72"
    },
    {
      "name": "할리스 합정역",
      "address": "서울 마포구 합정동 374-1"
    },
    {
      "name": "탐앤탐스 DMC 탐스커버리",
      "address": "서울 은평구 증산동 223-13"
    },
    {
      "name": "탐앤탐스 강남구청역사거리",
      "address": "서울 강남구 논현동 112-19"
    },
    {
      "name": "탐앤탐스 고대",
      "address": "서울 성북구 안암동5가 104-117"
    },
    {
      "name": "탐앤탐스 공릉",
      "address": "서울 노원구 공릉동 388-35"
    },
    {
      "name": "탐앤탐스 길동사거리",
      "address": "서울 강동구 길동 459-3"
    },
    {
      "name": "탐앤탐스 난곡사거리",
      "address": "서울 관악구 신림동 1474-23"
    },
    {
      "name": "탐앤탐스 논현1호점",
      "address": "서울 강남구 논현동 74-25"
    },
    {
      "name": "탐앤탐스 논현",
      "address": "서울 강남구 논현동 181-10"
    },
    {
      "name": "탐앤탐스 마포도화",
      "address": "서울 마포구 도화동 202-1"
    },
    {
      "name": "탐앤탐스 목동",
      "address": "서울 양천구 목동 917-9"
    },
    {
      "name": "탐앤탐스 문정로데오",
      "address": "서울 송파구 문정동 4-9"
    },
    {
      "name": "탐앤탐스 방이",
      "address": "서울 송파구 방이동 34-2"
    },
    {
      "name": "탐앤탐스블랙 도산사거리",
      "address": "서울 강남구 논현동 97-23"
    },
    {
      "name": "탐앤탐스블랙 압구정",
      "address": "서울 강남구 신사동 637-14"
    },
    {
      "name": "탐앤탐스블랙 이태원",
      "address": "서울 용산구 이태원동 67-1"
    },
    {
      "name": "탐앤탐스블랙 청계광장",
      "address": "서울 중구 무교동 77"
    },
    {
      "name": "탐앤탐스블랙 청담",
      "address": "서울 강남구 청담동 92-11"
    },
    {
      "name": "탐앤탐스 삼성2호점",
      "address": "서울 강남구 삼성동 150-1"
    },
    {
      "name": "탐앤탐스 삼성본점",
      "address": "서울 강남구 삼성동 143-27"
    },
    {
      "name": "탐앤탐스 상봉메가박스",
      "address": "서울 중랑구 상봉동 130-135"
    },
    {
      "name": "탐앤탐스 서울대입구",
      "address": "서울 관악구 봉천동 862-3"
    },
    {
      "name": "탐앤탐스 성대입구",
      "address": "서울 종로구 명륜4가 196-1"
    },
    {
      "name": "탐앤탐스 성신여대",
      "address": "서울 성북구 동선동1가 87"
    },
    {
      "name": "탐앤탐스 수유역",
      "address": "서울 강북구 번동 418-23"
    },
    {
      "name": "탐앤탐스 신사역",
      "address": "서울 강남구 논현동 17-5"
    },
    {
      "name": "탐앤탐스 신촌로터리",
      "address": "서울 서대문구 창천동 29-95"
    },
    {
      "name": "탐앤탐스 신촌",
      "address": "서울 서대문구 창천동 2-31"
    },
    {
      "name": "탐앤탐스 압구정로데오",
      "address": "서울 강남구 신사동 665-1"
    },
    {
      "name": "탐앤탐스 어린이대공원",
      "address": "서울 광진구 군자동 361-24"
    },
    {
      "name": "탐앤탐스 언주로",
      "address": "서울 강남구 역삼동 662-13"
    },
    {
      "name": "탐앤탐스 역삼2호점",
      "address": "서울 강남구 역삼동 769-12"
    },
    {
      "name": "탐앤탐스 영등포시장역",
      "address": "서울 영등포구 영등포동5가 43"
    },
    {
      "name": "탐앤탐스 영등포역",
      "address": "서울 영등포구 영등포동3가 10-7"
    },
    {
      "name": "탐앤탐스 잠실새내역",
      "address": "서울 송파구 잠실동 183"
    },
    {
      "name": "탐앤탐스 장안1호점",
      "address": "서울 동대문구 장안동 374-1"
    },
    {
      "name": "탐앤탐스 장한평역",
      "address": "서울 동대문구 장안동 433-5"
    },
    {
      "name": "탐앤탐스 천호로데오",
      "address": "서울 강동구 천호동 454-52"
    },
    {
      "name": "탐앤탐스 청담2호점",
      "address": "서울 강남구 논현동 96-14"
    },
    {
      "name": "탐앤탐스커버리 건대",
      "address": "서울 광진구 자양동 7-7"
    },
    {
      "name": "탐앤탐스커버리 광진화양",
      "address": "서울 광진구 자양동 7-7"
    },
    {
      "name": "탐앤탐스 금천본점",
      "address": "서울 금천구 독산동 1012-5"
    },
    {
      "name": "탐앤탐스커버리 도산로",
      "address": "서울 강남구 논현동 97-23"
    },
    {
      "name": "탐앤탐스커버리 청담",
      "address": "서울 강남 청담동 124-18"
    },
    {
      "name": "탐스퀘어 영등포",
      "address": "서울 영등포구 영등포동4가 55"
    },
    {
      "name": "탐앤탐스 티티클럽노원",
      "address": "서울 노원구 상계동 330-7"
    },
    {
      "name": "탐앤탐스 한양대",
      "address": "서울 성동구 행당동 28-24"
    },
    {
      "name": "탐앤탐스 홍대파크",
      "address": "서울 마포구 서교동 363-16"
    },
    {
      "name": "탐앤탐스 화곡역",
      "address": "서울 강서구 화곡동 1076-1"
    }
  ]
}
